Name,Lat,Lng,Max Temp,Humidity,Cloudiness,Wind Speed,Country,Date
Henties Bay,-22.116,-22.116,54.86,82,84,7.83,NA,1623557929
Bethel,41.3712,41.3712,61.11,91,1,0.0,US,1623557790
Saint-François,46.4154,46.4154,59.68,96,0,0.0,FR,1623557931
Ushuaia,-54.8,-54.8,34.16,95,95,3.4,AR,1623557495
Mar del Plata,-38.0023,-38.0023,55.87,87,0,1.99,AR,1623557809
Kruisfontein,-34.0033,-34.0033,53.98,70,20,2.95,ZA,1623557933
Brønnøysund,65.4625,65.4625,48.2,87,90,11.5,NO,1623557933
Yumen,40.2833,40.2833,72.37,38,100,1.14,CN,1623557935
Albany,42.6001,42.6001,63.21,85,44,3.06,US,1623557472
Dikson,73.5069,73.5069,32.0,97,100,14.09,RU,1623557811
Ossora,59.2353,59.2353,52.18,65,75,2.19,RU,1623557936
Vaini,-21.2,-21.2,73.56,73,40,11.5,TO,1623557820
Castro,-24.7911,-24.7911,45.54,82,0,2.26,BR,1623557750
Vanimo,-2.6741,-2.6741,85.73,67,17,8.21,PG,1623557938
San Cristobal,7.7669,7.7669,65.61,98,96,3.76,VE,1623557868
Ulladulla,-35.35,-35.35,65.88,48,75,0.89,AU,1623557940
‘Ewa Beach,21.3156,21.3156,82.35,57,20,17.0,US,1623557839
Bluff,-46.6,-46.6,52.74,98,100,8.5,NZ,1623557769
Departamento de Maldonado,-34.6667,-34.6667,56.59,89,0,7.58,UY,1623557727
Mataura,-46.1927,-46.1927,50.68,99,100,2.55,NZ,1623557842
Jamestown,42.097,42.097,64.33,86,4,1.01,US,1623557704
Geraldton,-28.7667,-28.7667,68.41,64,75,5.75,AU,1623557813
Punta Arenas,-53.15,-53.15,37.51,87,20,11.5,CL,1623557662
Mitú,1.1983,1.1983,71.13,95,100,0.13,CO,1623557944
Turan,16.0678,16.0678,89.65,55,75,6.91,VN,1623557944
Bredasdorp,-34.5322,-34.5322,53.26,79,2,3.58,ZA,1623557770
Port Alfred,-33.5906,-33.5906,63.39,71,70,5.28,ZA,1623557826
Busselton,-33.65,-33.65,60.08,57,43,5.12,AU,1623557823
Qaanaaq,77.484,77.484,27.64,84,86,3.83,GL,1623557810
Sitka,57.0531,57.0531,57.09,62,40,0.0,US,1623557948
Rikitea,-23.1203,-23.1203,75.88,76,18,6.78,PF,1623557768
Yuma,32.7253,32.7253,97.57,14,1,4.61,US,1623557949
Luanda,-8.8368,-8.8368,73.74,87,76,6.89,AO,1623557852
Saint-Philippe,-21.3585,-21.3585,72.99,85,57,17.83,RE,1623557771
Atuona,-9.8,-9.8,79.3,75,8,16.31,PF,1623557718
Te Anau,-45.4167,-45.4167,51.87,98,100,3.11,NZ,1623557951
Marrakesh,31.6315,31.6315,60.87,82,1,5.75,MA,1623557952
Mbaïki,3.8678,3.8678,70.38,99,100,2.21,CF,1623557952
Makakilo City,21.3469,21.3469,80.92,58,20,11.5,US,1623557953
East London,-33.0153,-33.0153,61.74,82,75,5.75,ZA,1623557776
Cherskiy,68.75,68.75,61.56,31,57,1.86,RU,1623557954
Lyman,48.9884,48.9884,63.07,86,0,4.09,UA,1623557955
Saskylakh,71.9167,71.9167,50.41,51,99,11.79,RU,1623557803
Yellowknife,62.456,62.456,57.72,72,20,6.91,CA,1623557789
Chui,-33.6971,-33.6971,52.52,93,4,6.87,UY,1623557958
New Norfolk,-42.7826,-42.7826,57.65,79,86,1.01,AU,1623557818
Broken Hill,-31.95,-31.95,58.28,40,97,9.19,AU,1623557959
Ribas do Rio Pardo,-20.4431,-20.4431,55.33,61,0,3.31,BR,1623557959
Ancud,-41.8697,-41.8697,43.43,86,100,5.44,CL,1623557960
Vanavara,60.34,60.34,62.8,40,93,9.62,RU,1623557961
Coquimbo,-29.9533,-29.9533,55.13,82,90,3.44,CL,1623557885
São Filipe,14.8961,14.8961,75.33,84,98,4.92,CV,1623557858
Saint Paul Harbor,57.79,57.79,51.31,76,90,9.22,US,1623557788
Yurkivka,49.0126,49.0126,61.29,88,31,7.18,UA,1623557963
Guymon,36.6828,36.6828,78.8,73,1,8.05,US,1623557964
Inhambane,-23.865,-23.865,65.7,86,3,3.22,MZ,1623557965
Thompson,55.7435,55.7435,45.77,96,100,8.3,CA,1623557713
Ponta do Sol,32.6667,32.6667,68.63,78,4,2.89,PT,1623557966
Richards Bay,-28.783,-28.783,60.85,55,9,3.65,ZA,1623557760
Hermanus,-34.4187,-34.4187,53.91,63,0,3.65,ZA,1623557797
Russell,32.3502,32.3502,78.03,93,1,0.0,US,1623557968
Angren,41.0167,41.0167,77.67,30,86,7.36,UZ,1623557895
Hithadhoo,-0.6,-0.6,82.13,74,17,9.62,MV,1623557831
Nikolskoye,59.7035,59.7035,64.4,72,77,6.33,RU,1623557801
Port Hardy,50.6996,50.6996,51.8,84,100,2.19,CA,1623557712
Hilo,19.7297,19.7297,78.53,73,90,6.91,US,1623557851
Shar,49.5886,49.5886,58.78,50,100,10.45,KZ,1623557971
Goma,-1.6792,-1.6792,60.4,90,81,2.68,CD,1623557972
Pizarro,4.9533,4.9533,77.74,88,100,2.3,CO,1623557972
Faanui,-16.4833,-16.4833,79.41,79,29,12.3,PF,1623557877
Hobart,-42.8794,-42.8794,59.02,90,75,10.36,AU,1623557587
Road Town,18.4167,18.4167,81.19,74,14,16.13,VG,1623557974
Lebu,-37.6167,-37.6167,54.66,91,100,7.25,CL,1623557959
Amapá,1.0,1.0,71.29,99,100,0.76,BR,1623557975
Barrow,71.2906,71.2906,34.52,81,100,10.02,US,1623557843
Cape Town,-33.9258,-33.9258,55.09,91,75,16.11,ZA,1623557774
Darhan,49.4867,49.4867,69.35,52,77,6.82,MN,1623557977
Victor Harbor,-35.5667,-35.5667,66.72,82,71,4.61,AU,1623557977
Havre-St-Pierre,50.2334,50.2334,44.6,75,1,6.91,CA,1623557979
The Valley,18.217,18.217,80.46,74,22,16.49,AI,1623557979
Verkhnyaya Inta,65.9811,65.9811,72.37,36,69,15.05,RU,1623557980
Beringovskiy,63.05,63.05,36.9,99,100,9.93,RU,1623557782
Skjervøy,70.0311,70.0311,46.74,83,98,2.46,NO,1623557981
Kalmunai,7.4167,7.4167,86.72,57,67,3.15,LK,1623557982
Westport,41.1415,41.1415,62.37,89,1,1.99,US,1623557983
Oudtshoorn,-33.5907,-33.5907,53.96,52,4,2.98,ZA,1623557983
Grand Gaube,-20.0064,-20.0064,76.37,64,8,11.01,MU,1623557984
La Ronge,55.1001,55.1001,59.22,67,75,2.3,CA,1623557985
Terråk,65.087,65.087,48.07,82,100,18.79,NO,1623557985
Bonthe,7.5264,7.5264,79.09,83,93,5.19,SL,1623557986
Bengkulu,-3.8004,-3.8004,84.38,68,83,4.21,ID,1623557779
Necochea,-38.5473,-38.5473,54.93,82,0,10.94,AR,1623557974
Chokurdakh,70.6333,70.6333,51.66,82,100,6.04,RU,1623557988
Itarema,-2.9248,-2.9248,74.86,90,100,2.35,BR,1623557833
Pacifica,37.6138,37.6138,71.56,88,65,7.23,US,1623557989
Isangel,-19.55,-19.55,82.51,69,75,0.0,VU,1623557990
Esperance,-33.8667,-33.8667,61.9,62,27,7.58,AU,1623557793
Port-Gentil,-0.7193,-0.7193,77.29,88,100,5.1,GA,1623557654
Lompoc,34.6391,34.6391,68.38,89,90,9.22,US,1623557820
Bontang,0.1333,0.1333,76.41,91,100,0.49,ID,1623557992
Mahébourg,-20.4081,-20.4081,76.24,64,20,17.27,MU,1623557844
Lavrentiya,65.5833,65.5833,36.19,97,100,10.49,RU,1623557993
Coyhaique,-45.5752,-45.5752,39.15,81,75,9.22,CL,1623557994
Breves,-1.6822,-1.6822,72.27,96,99,2.42,BR,1623557995
Tuatapere,-46.1333,-46.1333,53.29,98,100,5.41,NZ,1623557996
Ajdabiya,30.7554,30.7554,68.04,77,17,7.38,LY,1623557996
St-Jean-Port-Joli,47.2171,47.2171,60.6,63,7,6.04,CA,1623557997
Vila Franca do Campo,37.7167,37.7167,66.61,91,10,3.09,PT,1623557785
Kiryat Gat,31.61,31.61,82.4,61,0,9.24,IL,1623557998
Katsuura,35.1333,35.1333,81.23,80,100,13.29,JP,1623557999
Konongo,6.6167,6.6167,72.63,100,99,1.88,GH,1623557999
Kaitangata,-46.2817,-46.2817,50.63,99,100,2.42,NZ,1623558000
Tommot,58.9564,58.9564,58.42,56,95,4.14,RU,1623558001
Wanning,18.8003,18.8003,86.29,75,87,12.03,CN,1623557853
Ribeira Grande,38.5167,38.5167,67.75,84,13,2.91,PT,1623557783
Sorong,-0.8833,-0.8833,83.8,71,12,5.93,ID,1623558004
Rongcheng,30.634,30.634,82.78,79,100,5.06,CN,1623558005
Kahului,20.8947,20.8947,78.82,72,1,19.57,US,1623557924
Caravelas,-17.7125,-17.7125,74.73,74,100,11.97,BR,1623558006
Norman Wells,65.282,65.282,51.84,87,90,3.44,CA,1623557836
São Luiz Gonzaga,-28.4083,-28.4083,50.27,79,0,5.35,BR,1623558007
Udachny,66.4167,66.4167,49.77,71,100,11.3,RU,1623558009
Naze,28.3667,28.3667,74.32,88,100,5.53,JP,1623558009
Ola,59.5833,59.5833,51.35,63,4,6.29,RU,1623557844
Ferkessédougou,9.6,9.6,76.82,76,94,5.48,CI,1623558010
Yabēlo,4.8833,4.8833,56.68,79,99,9.17,ET,1623558011
Roald,62.5833,62.5833,53.17,87,90,16.11,NO,1623558012
Tasiilaq,65.6145,65.6145,37.56,98,100,4.94,GL,1623557855
Laguna,38.421,38.421,82.45,60,1,3.0,US,1623557814
Avera,33.194,33.194,75.07,92,87,10.04,US,1623558013
Kapaa,22.0752,22.0752,82.38,71,90,1.99,US,1623557856
Tuktoyaktuk,69.4541,69.4541,41.0,93,90,11.5,CA,1623557834
Bilibino,68.0546,68.0546,59.5,32,66,4.12,RU,1623558015
Krapkowice,50.4752,50.4752,57.78,95,41,14.16,PL,1623558016
Butaritari,3.0707,3.0707,82.53,74,31,6.49,KI,1623557719
Santa Maria,-29.6842,-29.6842,50.86,86,0,3.24,BR,1623557730
Cabo San Lucas,22.8909,22.8909,81.81,68,4,5.68,MX,1623557969
Panzhihua,26.5851,26.5851,86.67,56,87,2.93,CN,1623558018
Waipawa,-41.4122,-41.4122,56.44,74,100,11.52,NZ,1623558019
Avarua,-21.2078,-21.2078,71.65,78,90,6.91,CK,1623557879
Souillac,-20.5167,-20.5167,76.35,64,20,17.27,MU,1623558021
Makkah al Mukarramah,21.4267,21.4267,91.76,30,1,2.3,SA,1623558022
Hauterive,46.0901,46.0901,60.03,98,84,1.77,FR,1623558022
Gouré,13.9835,13.9835,81.01,43,85,9.46,NE,1623558023
Touros,-5.1989,-5.1989,72.5,86,96,10.02,BR,1623557874
Oga,46.4631,46.4631,59.68,96,52,7.45,IT,1623558025
Codrington,-38.2667,-38.2667,56.89,70,100,3.71,AU,1623558025
Khatanga,71.9667,71.9667,43.68,57,94,13.31,RU,1623557859
Klaksvík,62.2266,62.2266,45.52,96,100,17.4,FO,1623557862
Puerto Ayora,-0.7393,-0.7393,73.54,90,52,8.99,EC,1623557768
Provideniya,64.3833,64.3833,37.96,96,100,13.24,RU,1623558028
Phan Thiet,10.9333,10.9333,88.79,58,95,14.74,VN,1623558029
Pevek,69.7008,69.7008,37.31,78,0,5.32,RU,1623557822
Nouadhibou,20.931,20.931,75.18,64,100,14.97,MR,1623558030
Tiksi,71.6872,71.6872,50.22,54,100,9.98,RU,1623557784
Jacqueville,5.2052,5.2052,80.51,86,99,7.4,CI,1623558031
Halifax,44.6453,44.6453,50.05,78,4,2.3,CA,1623558032
Korla,41.7597,41.7597,75.0,37,59,18.01,CN,1623557965
Lagos,6.5833,6.5833,75.52,93,100,2.37,NG,1623557834
Ilhabela,-23.7781,-23.7781,64.06,87,50,4.05,BR,1623558034
Vidim,56.4088,56.4088,65.98,25,100,4.34,RU,1623558035
Kluang,2.0251,2.0251,85.73,65,73,5.39,MY,1623558036
São Gabriel da Cachoeira,-0.1303,-0.1303,72.07,99,100,0.13,BR,1623558036
Sergeevka,53.88,53.88,69.33,45,76,3.49,KZ,1623558037
Los Llanos de Aridane,28.6585,28.6585,64.15,94,75,11.5,ES,1623558038
Paris,48.8534,48.8534,59.5,86,0,3.44,FR,1623557798
Urusha,54.05,54.05,76.68,41,96,1.39,RU,1623558039
Nome,64.5011,64.5011,48.27,81,75,8.05,US,1623558040
Salalah,17.0151,17.0151,86.09,79,75,3.44,OM,1623557804
Hong Kong,22.2855,22.2855,89.96,83,100,3.0,HK,1623557589
Ginir,7.1333,7.1333,57.0,80,100,5.35,ET,1623558041
Abalak,58.1286,58.1286,71.55,41,99,7.29,RU,1623558042
Varhaug,58.6147,58.6147,51.35,75,26,15.12,NO,1623558043
Bambous Virieux,-20.3428,-20.3428,76.21,64,20,17.27,MU,1623557806
Iracoubo,5.4802,5.4802,76.15,87,45,2.66,GF,1623558044
Cockburn Town,21.4612,21.4612,80.26,82,90,16.35,TC,1623557954
Saint-Pierre,-21.3393,-21.3393,73.08,68,0,3.44,RE,1623558046
Hinton,53.4001,53.4001,48.24,53,52,3.04,CA,1623558046
Sterling,39.0062,39.0062,69.31,95,90,4.61,US,1623558048
Severo-Kuril'sk,50.6789,50.6789,47.79,90,47,16.15,RU,1623557888
Camaná,-16.6228,-16.6228,62.42,85,3,5.46,PE,1623558049
Ixtapa,20.7,20.7,76.23,89,99,3.33,MX,1623557956
Fortuna,40.5982,40.5982,67.93,77,90,1.01,US,1623557840
Sakakah,29.9697,29.9697,85.57,14,0,7.23,SA,1623558050
Follonica,42.9263,42.9263,72.5,80,16,4.68,IT,1623558051
Srandakan,-7.9386,-7.9386,84.94,68,56,5.59,ID,1623558052
Vao,-22.6667,-22.6667,73.31,80,8,8.7,NC,1623558053
Osypenko,46.9136,46.9136,71.83,67,2,3.02,UA,1623558053
Mayo,38.8876,38.8876,70.75,86,1,1.01,US,1623557824
Saint George,37.1041,37.1041,90.07,13,0,3.94,US,1623557638
Kokopo,-4.352,-4.352,86.16,56,5,12.06,PG,1623558055
Carutapera,-1.195,-1.195,72.61,94,99,4.54,BR,1623558056
George Town,5.4112,5.4112,87.75,71,40,8.05,MY,1623557773
Cidreira,-30.1811,-30.1811,54.19,76,0,7.56,BR,1623557868
Pemba,-12.974,-12.974,68.7,83,20,9.22,MZ,1623558057
Poum,-20.2333,-20.2333,75.02,74,0,1.92,NC,1623558058
Paraíso,9.8383,9.8383,65.26,96,93,1.63,CR,1623558059
Mount Isa,-20.7333,-20.7333,83.97,11,33,4.61,AU,1623558059
Abu Dhabi,24.4667,24.4667,91.42,70,20,5.75,AE,1623558060
Valle del Guamuez,0.4525,0.4525,69.31,99,99,1.79,CO,1623558061
Mirny,62.5353,62.5353,61.25,35,83,9.86,RU,1623558061
Houma,29.5958,29.5958,84.0,89,1,4.61,US,1623558062
Kattivākkam,13.2167,13.2167,89.69,65,100,18.19,IN,1623558063
Sharjah city,25.3573,25.3573,89.76,79,0,5.75,AE,1623557897
Moundou,8.5667,8.5667,72.72,89,100,3.76,TD,1623558066
Yangi Marg`ilon,40.4272,40.4272,79.52,31,96,6.91,UZ,1623557838
Huilong,31.8111,31.8111,79.99,88,100,5.06,CN,1623558067
Saldanha,-33.0117,-33.0117,57.02,81,6,5.59,ZA,1623557788
Suoyarvi,62.0833,62.0833,57.65,91,94,5.12,RU,1623558069
Chapais,49.7834,49.7834,51.58,53,77,4.59,CA,1623558069
Plettenberg Bay,-34.0527,-34.0527,60.12,62,13,1.9,ZA,1623558070
Tottori-shi,35.5,35.5,78.87,73,75,4.61,JP,1623558071
Abu Samrah,35.3029,35.3029,68.85,51,0,9.46,SY,1623558071
Forsytheganj,52.6333,52.6333,58.89,92,100,6.6,BY,1623558072
Ashland,40.8167,40.8167,72.14,95,28,2.66,US,1623557822
Dingle,10.9995,10.9995,82.18,79,97,4.38,PH,1623558073
Yining,29.0361,29.0361,91.49,59,98,3.83,CN,1623558074
Belmonte,-15.8631,-15.8631,72.1,87,100,12.68,BR,1623558075
Carnarvon,-24.8667,-24.8667,71.67,59,2,6.91,AU,1623557783
Gravelbourg,49.8834,49.8834,55.67,59,33,4.38,CA,1623558076
Warmbad,-28.45,-28.45,62.49,36,56,6.87,NA,1623558076
Lukovetskiy,64.2956,64.2956,67.98,46,62,8.3,RU,1623558077
Torbay,47.6666,47.6666,45.75,84,90,5.75,CA,1623557816
Khovd,48.0056,48.0056,63.55,24,100,4.5,MN,1623558078
Meulaboh,4.1363,4.1363,85.84,62,78,2.15,ID,1623558079
Pouébo,-20.4,-20.4,78.4,66,10,7.18,NC,1623558080
Upernavik,72.7868,72.7868,34.07,87,93,5.61,GL,1623557800
Los Andes,-32.8337,-32.8337,58.89,37,0,0.29,CL,1623557882
Leningradskiy,69.3833,69.3833,38.19,84,49,11.45,RU,1623558081
Sinnamary,5.3833,5.3833,76.05,87,53,1.05,GF,1623558082
Lagoa,39.05,39.05,66.56,83,0,3.58,PT,1623557780
Makīnsk,52.6292,52.6292,61.18,54,98,8.68,KZ,1623558083
Gurupá,-1.405,-1.405,71.31,96,99,2.33,BR,1623558084
Chinsali,-10.5414,-10.5414,50.11,77,0,5.91,ZM,1623558085
Port Elizabeth,-33.918,-33.918,59.29,100,90,1.14,ZA,1623557807
Ineu,46.4333,46.4333,63.72,99,100,6.33,RO,1623558086
Faya,18.3851,18.3851,71.71,17,93,9.26,SA,1623558087
Chara,56.9064,56.9064,56.89,51,99,1.43,RU,1623558088
La Unión,-5.4,-5.4,68.61,72,14,11.01,PE,1623558088
Narsaq,60.9167,60.9167,44.82,88,92,3.74,GL,1623558089
Shestakovo,56.4915,56.4915,69.31,29,100,0.36,RU,1623558090
Newport,51.5877,51.5877,57.45,85,10,6.53,GB,1623558091
Barra de Tecoanapa,16.5167,16.5167,79.38,78,63,1.16,MX,1623558092
Lichinga,-13.3128,-13.3128,48.29,87,0,4.61,MZ,1623558093
Namatanai,-3.6667,-3.6667,84.92,65,17,9.37,PG,1623557865
Cabedelo,-6.9811,-6.9811,72.27,82,3,9.35,BR,1623558095
Tongliao,43.6125,43.6125,95.16,24,1,7.85,CN,1623558095
Cayenne,4.9333,4.9333,77.09,90,40,2.3,GF,1623558096
Longyearbyen,78.2186,78.2186,37.24,60,20,12.66,SJ,1623557702
Giyani,-23.3025,-23.3025,54.54,63,2,3.27,ZA,1623558097
Qasigiannguit,68.8193,68.8193,35.85,90,83,2.15,GL,1623558098
Rawson,-43.3002,-43.3002,52.47,48,98,3.65,AR,1623558099
Sørland,67.667,67.667,48.85,81,89,17.63,NO,1623558099
Aguazul,5.1728,5.1728,72.63,95,100,1.25,CO,1623558100
Constitución,-35.3333,-35.3333,55.53,91,5,5.64,CL,1623557811
Tongchuanshi,35.0806,35.0806,78.71,63,100,5.57,CN,1623558102
Taoudenni,22.6783,22.6783,94.62,14,15,14.5,ML,1623558102
Guerrero Negro,27.9769,27.9769,62.74,87,5,18.75,MX,1623558103
Margate,51.3813,51.3813,56.7,87,10,1.01,GB,1623558104
Padang,-0.9492,-0.9492,86.05,60,45,4.12,ID,1623557967
Manchester,53.4809,53.4809,57.51,85,90,1.14,GB,1623557937
Santa Cruz de la Sierra,-17.8,-17.8,53.06,94,0,4.61,BO,1623558105
Griffith,41.5284,41.5284,76.82,85,75,4.61,US,1623558106
Sioux Lookout,50.1001,50.1001,64.47,52,1,3.44,CA,1623557886
Martinez,38.0194,38.0194,73.26,74,1,1.01,US,1623557915
Kodinsk,58.6881,58.6881,68.23,32,21,10.98,RU,1623558108
Avila,40.5833,40.5833,60.66,72,85,8.66,ES,1623558108
Dourados,-22.2211,-22.2211,51.62,70,0,4.54,BR,1623558109
Okha,53.5739,53.5739,45.9,78,100,18.14,RU,1623558110
Ghanzi,-21.5667,-21.5667,49.32,47,20,5.88,BW,1623558111
Olafsvik,64.8945,64.8945,44.19,74,100,13.29,IS,1623557799
Talara,-4.5772,-4.5772,67.64,84,22,14.56,PE,1623558112
Riwaka,-41.0833,-41.0833,60.01,96,100,3.15,NZ,1623558112
Kozhva,65.1073,65.1073,69.35,42,99,13.09,RU,1623558113
Meadow Lake,34.8014,34.8014,87.67,34,59,11.16,US,1623558114
Lenina,46.0667,46.0667,65.28,83,87,4.65,RU,1623558115
Haines Junction,60.7522,60.7522,60.75,41,88,16.11,CA,1623558115
Itoman,26.1247,26.1247,88.18,87,75,13.8,JP,1623557996
Talwandi Bhai,30.85,30.85,96.8,39,0,10.76,IN,1623558116
Nola,40.922,40.922,69.93,91,79,1.95,IT,1623558117
Zhigansk,66.7697,66.7697,62.44,34,95,19.91,RU,1623557848
Karaton,-6.3424,-6.3424,89.76,59,77,4.0,ID,1623558118
Bilma,18.6853,18.6853,86.54,18,20,19.04,NE,1623558119
Kosum Phisai,16.2486,16.2486,77.41,91,100,14.63,TH,1623558120
Pimentel,-6.8367,-6.8367,65.84,86,32,8.3,PE,1623558120
Presidencia Roque Sáenz Peña,-26.7852,-26.7852,52.79,83,0,6.78,AR,1623557781
Leverkusen,51.0333,51.0333,52.54,87,9,2.46,DE,1623558122
Khandyga,62.6667,62.6667,66.34,50,99,7.94,RU,1623558122
Dubbo,-32.25,-32.25,57.33,51,90,5.75,AU,1623558124
Marzuq,14.4,14.4,83.62,20,100,2.93,YE,1623558125
Lüderitz,-26.6481,-26.6481,58.28,78,9,4.81,NA,1623558125
Clyde River,70.4692,70.4692,32.23,93,90,13.8,CA,1623557832
Metro,-5.1131,-5.1131,87.73,62,94,6.31,ID,1623558127
Marsá Maţrūḩ,31.3525,31.3525,71.8,78,40,9.22,EG,1623558127
Pauini,-7.7136,-7.7136,70.52,85,53,2.98,BR,1623558128
Mount Gambier,-37.8333,-37.8333,57.16,61,100,3.74,AU,1623558129
Emerald,-23.5333,-23.5333,76.33,41,75,1.45,AU,1623558129
Muisne,0.6,0.6,76.33,87,100,9.37,EC,1623558130
Shellbrook,53.2168,53.2168,61.83,72,87,10.51,CA,1623558131
Usinsk,65.9939,65.9939,71.69,39,64,19.17,RU,1623558131
Terney,45.0503,45.0503,73.94,56,47,5.86,RU,1623557883
Ambilobe,-13.2,-13.2,71.31,90,5,2.75,MG,1623558133
Redmond,47.674,47.674,68.99,67,100,1.01,US,1623557965
Arraial do Cabo,-22.9661,-22.9661,68.77,74,29,15.55,BR,1623557817
West Sacramento,38.5805,38.5805,82.49,56,1,1.01,US,1623558134
Lisala,2.15,2.15,71.2,93,100,2.19,CD,1623558135
Bali,-8.5,-8.5,85.17,61,36,10.11,ID,1623558136
Merauke,-8.4667,-8.4667,82.67,78,41,15.55,ID,1623558136
Yulara,-25.2406,-25.2406,76.84,33,40,17.27,AU,1623558049
La Rioja,42.25,42.25,57.04,66,0,6.22,ES,1623558123
Ndioum,16.5129,16.5129,80.06,57,23,15.64,SN,1623558138
Worcester,42.3334,42.3334,60.82,89,1,8.05,US,1623558139
Kushtagi,15.7667,15.7667,80.24,56,83,23.82,IN,1623557862
Chifeng,42.2683,42.2683,92.19,26,94,7.78,CN,1623558140
San Alberto,7.7611,7.7611,75.04,92,100,4.0,CO,1623558141
Adeje,28.1227,28.1227,65.52,76,0,4.0,ES,1623558141
Port Blair,11.6667,11.6667,85.1,75,96,21.36,IN,1623557829
Saint-Joseph,-21.3667,-21.3667,71.98,80,51,16.04,RE,1623557815
Bahía Blanca,-38.7196,-38.7196,57.7,69,0,8.28,AR,1623558143
Pundaguitan,6.3711,6.3711,83.53,70,5,4.07,PH,1623558144
Toamasina,-18.1667,-18.1667,69.8,94,75,5.75,MG,1623558144
Iqaluit,63.7506,63.7506,31.73,86,75,10.0,CA,1623558145
Hamilton,39.1834,39.1834,78.19,89,1,0.0,US,1623558136
Kavieng,-2.5744,-2.5744,84.87,70,9,13.02,PG,1623558146
Bulgan,48.8125,48.8125,67.39,55,86,3.24,MN,1623558148
Cairns,-16.9167,-16.9167,87.06,84,40,8.05,AU,1623558128
San Policarpo,12.1791,12.1791,82.87,81,100,5.91,PH,1623558149
Urbano Santos,-3.2078,-3.2078,70.81,98,30,3.36,BR,1623558149
São João da Barra,-21.6403,-21.6403,65.62,79,85,10.42,BR,1623557900
Zeya,53.75,53.75,79.07,38,32,5.21,RU,1623558151
Hasaki,35.7333,35.7333,82.69,76,100,16.2,JP,1623557986
Ulaangom,49.9811,49.9811,61.07,44,27,6.44,MN,1623558152
Luganville,-15.5333,-15.5333,81.52,67,11,8.28,VU,1623558153
Austin,30.2672,30.2672,84.2,78,1,1.01,US,1623558053
Khotynets,53.1286,53.1286,59.0,89,12,5.21,RU,1623558066
Sarangani,5.4033,5.4033,83.91,72,49,10.45,PH,1623558155
Kirovsk,48.6375,48.6375,63.3,83,0,5.77,UA,1623558156
Athabasca,54.7169,54.7169,58.82,69,9,5.79,CA,1623558157
Pisco,-13.7,-13.7,64.45,72,90,8.05,PE,1623557819
Cikupa,-6.2364,-6.2364,91.17,62,64,5.79,ID,1623558158
Sfântu Gheorghe,45.8667,45.8667,59.27,88,81,1.63,RO,1623558158
Port Lincoln,-34.7333,-34.7333,59.18,64,100,9.89,AU,1623558160
Sur,22.5667,22.5667,93.09,54,0,2.53,OM,1623558161
Northam,51.0333,51.0333,55.09,86,11,1.79,GB,1623558162
Slonim,53.0867,53.0867,51.06,95,100,10.56,BY,1623558163
Arlit,18.7369,18.7369,88.83,13,0,7.96,NE,1623558163
Vestmannaeyjar,63.4427,63.4427,42.46,85,100,33.6,IS,1623558164
Burnie,-41.0667,-41.0667,59.59,68,21,1.66,AU,1623558165
Aden,12.7794,12.7794,88.74,62,96,17.0,YE,1623558165
Bereznehuvate,47.3078,47.3078,67.26,75,96,7.27,UA,1623558166
Staryy Nadym,65.6118,65.6118,67.6,55,56,7.31,RU,1623558167
Nanortalik,60.1432,60.1432,35.26,90,59,6.13,GL,1623557866
Arrondissement de Saint-Denis,48.9167,48.9167,59.49,85,0,3.44,FR,1623558168
Calvià,39.5657,39.5657,72.9,41,84,4.23,ES,1623558169
Pushkino,56.0172,56.0172,66.24,82,38,3.69,RU,1623558170
Corinth,37.9407,37.9407,73.63,78,78,3.6,GR,1623557970
San Jose,37.3394,37.3394,71.46,77,20,7.0,US,1623558137
Bull Savanna,17.8868,17.8868,75.54,87,100,7.99,JM,1623558172
Egvekinot,66.3167,66.3167,45.34,52,100,9.04,RU,1623558172
Dogondoutchi,13.6393,13.6393,88.11,50,25,10.27,NE,1623558173
Jérémie,18.65,18.65,79.29,75,31,2.24,HT,1623558174
Samarai,-10.6167,-10.6167,81.55,79,20,12.28,PG,1623558174
Ostrovnoy,68.0531,68.0531,67.3,43,22,16.93,RU,1623558175
Anadyr,64.75,64.75,46.9,70,20,11.01,RU,1623558176
Iralaya,15.0,15.0,80.19,84,81,8.7,HN,1623558177
Ekhabi,53.5102,53.5102,46.67,78,100,18.07,RU,1623558178
Patacamaya,-17.2333,-17.2333,36.64,33,1,3.51,BO,1623558178
Kudat,6.8837,6.8837,84.13,79,20,4.61,MY,1623558179
Derbent,42.0678,42.0678,75.02,58,12,3.04,RU,1623558180
Santana,-0.0583,-0.0583,78.98,94,40,2.3,BR,1623558181
Iguape,-24.7081,-24.7081,63.3,71,53,3.87,BR,1623558182
‘Āhuimanu,21.4447,21.4447,82.11,60,20,16.11,US,1623558182
Mayuge,0.4597,0.4597,62.24,92,13,4.32,UG,1623558183
Damaturu,11.747,11.747,80.38,67,100,15.03,NG,1623558184
Olinda,-8.0089,-8.0089,71.33,83,20,2.3,BR,1623558185
El Calvario,14.1167,14.1167,64.02,98,100,1.7,GT,1623558186
Sinazongwe,-17.2614,-17.2614,56.52,56,1,3.91,ZM,1623558186
Sisimiut,66.9395,66.9395,36.39,86,78,4.52,GL,1623557835
Khipro,25.8285,25.8285,92.44,51,0,25.59,PK,1623558187
Maragogi,-9.0122,-9.0122,72.25,83,100,3.62,BR,1623558188
Nantucket,41.2835,41.2835,61.09,88,1,5.75,US,1623558178
Yibin,28.7667,28.7667,86.43,63,85,3.74,CN,1623558189
Kaseda-shirakame,31.4167,31.4167,79.84,92,100,3.96,JP,1623558190
Sept-Îles,50.2001,50.2001,47.05,62,1,3.0,CA,1623557952
Hay River,60.8156,60.8156,55.38,67,20,6.91,CA,1623558191
Grindavik,63.8424,63.8424,43.27,75,90,21.85,IS,1623557827
Shimoda,34.6667,34.6667,79.16,74,100,10.11,JP,1623558192
Rincon,32.296,32.296,73.85,100,90,5.75,US,1623558193
Qaqortoq,60.7167,60.7167,45.1,91,86,5.21,GL,1623557777
Verāval,20.9,20.9,86.72,75,43,13.49,IN,1623558194
Bétérou,9.1992,9.1992,73.4,93,100,4.0,BJ,1623558195
Lata,40.1629,40.1629,68.41,87,93,2.24,PT,1623558196
Talnakh,69.4865,69.4865,34.63,95,22,6.89,RU,1623558197
Chincha Alta,-13.4099,-13.4099,63.19,84,42,1.1,PE,1623558197
Portland,45.5234,45.5234,66.43,90,90,1.99,US,1623557832
Suntar,62.1444,62.1444,68.0,26,21,7.9,RU,1623558199
Toro,4.6117,4.6117,70.48,98,100,1.32,CO,1623558199
Lakhīmpur,27.95,27.95,93.72,46,0,8.68,IN,1623558201
Khani,41.9563,41.9563,56.77,99,100,2.13,GE,1623557856
George Town,5.4112,5.4112,88.9,70,40,1.01,MY,1623558202
Kabwe,-14.4469,-14.4469,48.92,68,4,4.27,ZM,1623558202
Goderich,43.7501,43.7501,71.92,68,15,5.75,CA,1623558203
Airai,-8.9266,-8.9266,75.16,50,23,3.27,TL,1623557861
Gweta,-20.1833,-20.1833,52.03,46,3,5.46,BW,1623558204
Kangaba,11.9333,11.9333,82.22,58,87,3.69,ML,1623558205
Kinshasa,-4.3246,-4.3246,75.58,94,40,2.3,CD,1623558206
Seguin,29.5688,29.5688,85.51,81,1,5.99,US,1623558206
Nemuro,43.3236,43.3236,84.63,88,26,16.04,JP,1623558207
Kwang Binh,17.4833,17.4833,80.38,77,100,12.21,VN,1623558208
Knyaze-Volkonskoye,48.4642,48.4642,64.74,74,100,10.07,RU,1623558208
Peniche,39.3558,39.3558,70.36,92,99,2.91,PT,1623558209
Matagami,49.7502,49.7502,48.31,71,1,3.44,CA,1623558211
South Valley,35.0101,35.0101,89.58,32,40,24.16,US,1623558212
Mehamn,71.0357,71.0357,47.23,97,100,2.3,NO,1623558213
São José da Coroa Grande,-8.8978,-8.8978,73.0,82,97,3.98,BR,1623557864
Sabang,5.8933,5.8933,83.41,74,92,11.32,ID,1623558214
Rovaniemi,66.5,66.5,51.21,87,90,6.91,FI,1623558215
Fukuechō,32.6881,32.6881,77.36,88,75,5.75,JP,1623558215
Naghadeh,36.9553,36.9553,67.87,31,0,4.52,IR,1623558216
Ayabaca,-4.6398,-4.6398,46.22,95,81,2.84,PE,1623558218
Catuday,16.2923,16.2923,83.7,71,100,13.38,PH,1623558219
Yinzhu,35.8786,35.8786,82.42,68,20,9.89,CN,1623558220
Bandarbeyla,9.4942,9.4942,81.73,57,51,25.95,SO,1623558220
Toora-Khem,52.4675,52.4675,45.57,93,100,3.15,RU,1623558221
College,64.8569,64.8569,73.35,40,75,9.22,US,1623557957
Klyuchi,52.2667,52.2667,67.64,35,63,10.02,RU,1623558222
Noumea,-22.2763,-22.2763,80.01,99,10,5.7,NC,1623558223
Furtwangen im Schwarzwald,48.05,48.05,56.77,94,29,1.25,DE,1623558223
Punta de Bombón,-17.1717,-17.1717,61.43,84,6,3.94,PE,1623558224
Tessalit,20.1986,20.1986,90.41,11,58,7.85,ML,1623558225
Aykhal,66.0,66.0,44.85,80,100,11.74,RU,1623557881
Conde,-7.2597,-7.2597,71.06,94,40,5.75,BR,1623558226
Cohoes,42.7742,42.7742,64.94,87,40,9.22,US,1623558227
Sambava,-14.2667,-14.2667,72.64,86,58,5.68,MG,1623558227
Sabha,27.0377,27.0377,74.52,31,0,9.24,LY,1623558228
Dalvik,65.9702,65.9702,40.93,76,97,5.68,IS,1623558229
Berlevåg,70.8578,70.8578,47.37,93,100,4.97,NO,1623557807
Micheweni,-4.9667,-4.9667,76.41,75,22,11.92,TZ,1623558230
Hongjiang,27.11,27.11,89.85,63,77,4.45,CN,1623558231
Luba,3.4568,3.4568,73.29,83,99,2.86,GQ,1623558231
Greater Sudbury,46.49,46.49,65.26,86,97,1.57,CA,1623558232
Gilgit,35.9221,35.9221,79.02,36,16,1.7,PK,1623558233
Arroyo de la Encomienda,41.6096,41.6096,63.14,78,0,6.91,ES,1623558233
Arman',59.7,59.7,55.27,58,2,7.54,RU,1623558234
Quatre Cocos,-20.2078,-20.2078,76.08,70,23,18.92,MU,1623558235
Ucar,40.519,40.519,77.18,45,0,3.29,AZ,1623558236
Chamba,32.5667,32.5667,81.54,58,48,2.19,IN,1623558236
Buala,-8.145,-8.145,84.15,70,26,5.73,SB,1623558237
Ratnagiri,16.9833,16.9833,78.66,89,100,5.17,IN,1623558238
Yaan,7.3833,7.3833,73.29,93,100,3.74,NG,1623558238
Bereda,43.2686,43.2686,59.14,100,80,3.33,ES,1623558239
Adrar,20.5022,20.5022,93.58,18,79,6.04,MR,1623557863
Hofn,64.2539,64.2539,36.9,96,100,15.41,IS,1623558240
La Santisima Trinidad,-14.8333,-14.8333,60.73,78,1,3.24,BO,1623558241
Kyaukse,21.6,21.6,91.4,55,75,8.05,MM,1623558242
Stornoway,58.2093,58.2093,57.16,94,90,16.11,GB,1623558242
Juneau,58.3019,58.3019,57.25,86,75,6.91,US,1623558243
General Roca,-39.0333,-39.0333,46.8,52,60,2.71,AR,1623558244
Talen,23.5667,23.5667,92.48,49,68,15.95,IN,1623558245
Shingū,33.7333,33.7333,76.19,78,100,4.0,JP,1623558246
Mutatá,7.2441,7.2441,75.24,98,100,1.59,CO,1623558246
Bonavista,48.6499,48.6499,44.6,79,100,10.6,CA,1623557778
Ikare,7.4913,7.4913,71.28,87,100,1.14,NG,1623558247
Ilulissat,69.2167,69.2167,35.62,87,90,3.44,GL,1623558248
Wad Medani,14.4012,14.4012,91.13,38,63,10.78,SD,1623558249
Atar,20.5169,20.5169,91.15,17,31,8.43,MR,1623558250
Sistranda,63.7256,63.7256,49.89,77,81,31.23,NO,1623557881
Frutigen,46.5878,46.5878,61.02,78,57,2.35,CH,1623558251
Labuhan,-6.8844,-6.8844,86.58,64,59,5.91,ID,1623558252
Soyo,-6.1349,-6.1349,75.2,91,71,5.14,AO,1623558253
Hirara,24.8,24.8,89.87,74,75,18.41,JP,1623558253
Itacaré,-14.2775,-14.2775,73.45,87,100,5.37,BR,1623558254
Kasangulu,-4.5911,-4.5911,74.34,92,19,2.77,CD,1623558255
Carberry,49.8689,49.8689,65.64,70,32,5.88,CA,1623558255
Arrondissement du Havre,49.5833,49.5833,55.17,88,16,4.61,FR,1623558256
Zavetnoye,47.1194,47.1194,65.05,87,100,4.29,RU,1623558257
Simao,22.7886,22.7886,83.44,56,100,3.22,CN,1623558257
Huayucachi,-12.1333,-12.1333,51.49,78,84,1.95,PE,1623558258
Opuwo,-18.0607,-18.0607,54.75,35,4,7.47,NA,1623558259
Kidal,18.4411,18.4411,89.13,22,1,5.86,ML,1623558260
Khilok,51.3674,51.3674,58.24,90,100,1.36,RU,1623558261
Mushie,-3.0167,-3.0167,72.81,75,32,2.89,CD,1623558261
Yatou,37.15,37.15,78.75,52,56,10.56,CN,1623558262
Kutum,14.2,14.2,79.54,15,100,6.58,SD,1623558263
Cullman,34.1748,34.1748,72.1,94,1,0.0,US,1623558263
Cedar City,37.6775,37.6775,74.37,7,1,5.75,US,1623558264
Kumul,42.8,42.8,78.51,31,21,5.32,CN,1623558265
Prince George,53.9166,53.9166,59.29,62,40,6.91,CA,1623558090
Severnoye,56.3491,56.3491,55.89,96,100,8.01,RU,1623558267
Kaniama,-7.5667,-7.5667,61.77,58,3,5.57,CD,1623558268
Myitkyina,25.3833,25.3833,84.9,79,87,2.82,MM,1623558269
Winneba,5.3511,5.3511,79.27,87,97,5.35,GH,1623558269
Leshukonskoye,64.8989,64.8989,67.26,45,67,5.3,RU,1623557775
Boundiali,9.5217,9.5217,75.65,78,100,3.96,CI,1623558270
Abadan,38.0507,38.0507,85.73,42,0,13.8,TM,1623558271
Dunedin,-45.8742,-45.8742,54.81,92,100,1.99,NZ,1623557876
Zyryanka,65.75,65.75,76.32,25,83,12.71,RU,1623558272
Dobrić,44.7019,44.7019,65.8,90,100,8.39,RS,1623558273
São Miguel do Araguaia,-13.275,-13.275,74.05,54,98,5.08,BR,1623558274
Puerto Madero,14.7208,14.7208,75.4,100,75,2.3,MX,1623558275
Raudeberg,61.9875,61.9875,47.86,91,84,17.83,NO,1623557802
Aswān,24.0934,24.0934,90.82,14,0,8.19,EG,1623558276
Mahon,39.8885,39.8885,68.56,94,20,5.75,ES,1623558250
Ust-Nera,64.5667,64.5667,71.04,33,73,3.8,RU,1623558277
Vestmanna,62.1564,62.1564,45.52,100,90,21.85,FO,1623558278
Acapulco de Juárez,16.8634,16.8634,79.41,79,97,2.06,MX,1623558278
Macia,-25.0269,-25.0269,58.82,96,0,3.09,MZ,1623558279
Kununurra,-15.7667,-15.7667,87.78,15,99,5.75,AU,1623558280
Sawtell,-30.3833,-30.3833,67.19,58,3,10.36,AU,1623558280
Creil,49.2567,49.2567,61.79,92,10,4.36,FR,1623558281
Ruteng,-8.6136,-8.6136,73.6,67,54,1.54,ID,1623558282
Eyl,7.9803,7.9803,80.6,62,63,23.69,SO,1623558282
Ust-Maya,60.4167,60.4167,64.62,70,69,6.76,RU,1623558283
Lobito,-12.3481,-12.3481,72.19,68,5,3.89,AO,1623558284
Oranjestad,12.524,12.524,80.91,83,20,5.01,AW,1623558285
Puerto Escondido,15.85,15.85,79.45,88,100,4.92,MX,1623558286
Bell Ville,-32.6259,-32.6259,57.67,66,1,12.62,AR,1623558286
Laela,-8.5667,-8.5667,49.87,94,0,4.68,TZ,1623558288
Waddān,29.1614,29.1614,70.14,56,0,6.89,LY,1623558288
Kumluca,36.3703,36.3703,73.26,64,0,1.79,TR,1623558289
Havelock,34.8791,34.8791,71.58,88,62,1.99,US,1623558290
Tazmalt,36.3868,36.3868,73.45,35,63,1.21,DZ,1623558290
Aras,42.5617,42.5617,58.06,82,0,0.0,ES,1623558291
Samarinda,-0.5,-0.5,76.19,93,100,2.17,ID,1623558292
Dhāri,21.3333,21.3333,88.63,58,34,11.72,IN,1623558292
Novy Urengoy,66.0833,66.0833,54.81,56,35,3.51,RU,1623557834
Koundara,12.4833,12.4833,75.49,88,29,3.4,GN,1623558294
Yar-Sale,66.8333,66.8333,70.72,47,69,7.58,RU,1623558294
Joshīmath,30.5667,30.5667,75.24,63,9,5.91,IN,1623558295
Kushikino,31.7167,31.7167,80.08,94,100,4.76,JP,1623558296
Dayong,25.0209,25.0209,89.28,56,67,6.89,CN,1623558296
Senanga,-16.1167,-16.1167,47.43,56,79,5.61,ZM,1623558297
Southampton,50.904,50.904,59.0,84,28,5.59,GB,1623558207
Altamont,42.2068,42.2068,65.77,52,1,6.91,US,1623558298
Imbituba,-28.24,-28.24,57.09,88,0,4.76,BR,1623558299
Yerofey Pavlovich,53.9667,53.9667,77.22,41,87,2.55,RU,1623558300
Ruska Poliana,49.417,49.417,62.11,85,68,7.76,UA,1623558300
Sola,-13.8833,-13.8833,79.65,70,79,15.77,VU,1623558301
Dhidhdhoo,6.8833,6.8833,81.75,79,95,18.48,MV,1623558303
Vredendal,-31.6683,-31.6683,54.63,84,3,2.62,ZA,1623558304
Kushima,31.4583,31.4583,80.11,94,100,5.97,JP,1623558305
Eirunepé,-6.6603,-6.6603,72.73,84,85,2.57,BR,1623558014
Tocopilla,-22.092,-22.092,62.2,65,1,1.7,CL,1623558113
Verkhoyansk,67.5447,67.5447,65.46,26,3,6.71,RU,1623558307
