Name,Lat,Lng,Max Temp,Humidity,Cloudiness,Wind Speed,Country,Date
New Norfolk,-42.7826,147.0587,54.57,89,99,1.21,AU,1623635638
Rikitea,-23.1203,-134.9692,75.38,74,100,13.65,PF,1623635639
Port Hawkesbury,45.6169,-61.3485,49.59,76,1,1.99,CA,1623635640
Alyangula,-13.8483,136.4192,85.87,58,68,5.75,AU,1623635641
Puerto Ayora,-0.7393,-90.3518,72.93,74,91,9.44,EC,1623635642
Punta Arenas,-53.15,-70.9167,37.51,87,0,18.41,CL,1623635523
Hithadhoo,-0.6,73.0833,82.45,74,97,10.11,MV,1623635643
Barrow,71.2906,-156.7887,39.22,81,20,19.57,US,1623635554
Areosa,41.7178,-8.8571,70.86,91,24,5.84,PT,1623635645
Mar del Plata,-38.0023,-57.5575,62.1,84,0,3.0,AR,1623635645
Saskylakh,71.9167,114.0833,47.17,41,47,11.61,RU,1623635646
Tasiilaq,65.6145,-37.6368,29.61,85,100,2.86,GL,1623635647
Cape Town,-33.9258,18.4232,53.11,100,27,3.44,ZA,1623635376
Cabañas,22.9758,-82.9219,79.27,86,100,4.7,CU,1623635648
Albany,42.6001,-73.9662,68.77,76,80,6.42,US,1623635648
Geraldton,-28.7667,114.6,66.61,68,90,11.5,AU,1623635649
Mataura,-46.1927,168.8643,49.48,91,97,3.18,NZ,1623635650
Rabo de Peixe,37.8,-25.5833,65.71,88,20,4.61,PT,1623635745
Boddam,57.4667,-1.7833,61.18,98,100,2.59,GB,1623635746
Lüderitz,-26.6481,15.1594,63.01,62,0,5.21,NA,1623635747
Ahipara,-35.1667,173.1667,63.05,91,91,6.42,NZ,1623635747
Port Alfred,-33.5906,26.891,61.32,85,88,13.56,ZA,1623635748
Kumul,42.8,93.45,73.56,33,100,12.73,CN,1623635749
Ponta do Sol,32.6667,-17.1,70.43,70,87,5.48,PT,1623635749
Ushuaia,-54.8,-68.3,37.06,81,40,17.27,AR,1623635601
Faanui,-16.4833,-151.75,79.39,80,94,11.7,PF,1623635751
Bengkulu,-3.8004,102.2655,81.32,71,96,3.83,ID,1623635751
Pangnirtung,66.1451,-65.7125,33.4,96,94,1.36,CA,1623635752
Tamayo,18.3947,-71.2029,77.56,84,70,2.66,DO,1623635753
Mabaruma,8.2,-59.7833,74.37,93,14,2.21,GY,1623635753
Cherskiy,68.75,161.3,64.06,30,52,6.42,RU,1623635754
Port Augusta,-32.5,137.7667,66.7,34,41,17.18,AU,1623635755
Arraial do Cabo,-22.9661,-42.0278,69.39,59,59,10.4,BR,1623635756
Khuzhir,53.1939,107.3397,48.04,81,51,7.65,RU,1623635757
Bluff,-46.6,168.3333,49.8,89,97,4.85,NZ,1623635599
Kruisfontein,-34.0033,24.7314,50.88,79,90,9.13,ZA,1623635758
Laguna,38.421,-121.4238,89.46,45,3,5.99,US,1623635758
Yarovoy,52.9273,78.58,67.3,65,3,6.64,RU,1623635759
Clyde River,70.4692,-68.5914,30.43,86,90,11.5,CA,1623635760
Osinki,52.8432,49.5132,64.99,85,100,3.04,RU,1623635761
Kavaratti,10.5669,72.642,83.5,76,100,23.24,IN,1623635761
Hilo,19.7297,-155.09,83.28,84,43,3.0,US,1623635584
Inhambane,-23.865,35.3833,63.5,83,0,2.57,MZ,1623635762
Hermanus,-34.4187,19.2345,52.9,84,1,4.76,ZA,1623635763
Gurupi,-11.7292,-49.0686,82.22,38,97,2.42,BR,1623635764
Eureka,40.8021,-124.1637,66.2,95,100,3.0,US,1623635585
Busselton,-33.65,115.3333,53.1,65,100,23.17,AU,1623635765
Dingle,10.9995,122.6711,85.89,69,84,1.36,PH,1623635766
Murray Bridge,-35.1167,139.2667,67.68,53,88,17.07,AU,1623635766
Roanoke Rapids,36.4615,-77.6542,72.34,94,1,3.44,US,1623635767
Hohhot,40.8106,111.6522,75.49,69,0,4.47,CN,1623635768
Norman Wells,65.282,-126.8329,57.24,58,75,14.97,CA,1623635768
Yerofey Pavlovich,53.9667,121.9667,61.12,93,100,4.38,RU,1623635770
Dormidontovka,47.7702,134.9076,66.65,54,0,11.9,RU,1623635770
Los Llanos de Aridane,28.6585,-17.9182,65.95,92,75,13.8,ES,1623635771
Saint Anthony,45.0205,-93.218,87.4,26,1,11.5,US,1623635775
Bantou,26.2151,117.4893,86.18,69,99,3.78,CN,1623635776
Babušnica,43.0597,22.4117,53.76,94,48,3.42,RS,1623635777
Longyearbyen,78.2186,15.6401,31.84,69,75,11.5,SJ,1623635777
Carnarvon,-24.8667,113.6333,62.67,64,40,10.36,AU,1623635778
Isangel,-19.55,169.2667,79.23,77,12,11.74,VU,1623635779
Ayagoz,47.9714,80.4392,57.11,43,95,6.33,KZ,1623635780
Jamestown,42.097,-79.2353,72.99,78,90,3.78,US,1623635528
Atar,20.5169,-13.0499,95.2,12,24,15.21,MR,1623635781
Bethel,41.3712,-73.414,67.77,76,76,4.23,US,1623635782
Santiago,-33.4569,-70.6483,60.17,53,0,1.14,CL,1623635503
Nanortalik,60.1432,-45.2371,35.24,89,36,3.13,GL,1623635784
Iqaluit,63.7506,-68.5145,33.53,86,40,3.0,CA,1623635749
Arrondissement d'Ajaccio,42.0,8.9167,62.65,82,0,5.75,FR,1623635785
Yellowknife,62.456,-114.3525,70.32,52,40,14.97,CA,1623635785
Jodhpur,26.2867,73.03,85.6,61,2,18.97,IN,1623635786
Torbay,47.6666,-52.7314,48.58,86,90,21.85,CA,1623635787
Nikolskoye,59.7035,30.7861,56.79,93,74,4.9,RU,1623635788
Esperance,-33.8667,121.9,58.84,67,37,27.42,AU,1623635788
Constitución,-35.3333,-72.4167,54.79,82,100,7.2,CL,1623635756
Lompoc,34.6391,-120.4579,79.57,85,90,24.0,US,1623635789
Kapaa,22.0752,-159.319,84.18,78,80,3.0,US,1623635790
Lebu,-37.6167,-73.65,48.81,79,100,19.55,CL,1623635522
Bredasdorp,-34.5322,20.0403,47.52,93,0,4.61,ZA,1623635791
Ashgabat,37.95,58.3833,82.26,42,40,20.71,TM,1623635795
Jiazi,22.8779,116.067,84.6,77,49,8.08,CN,1623635796
Ancud,-41.8697,-73.8203,37.42,74,5,4.68,CL,1623635583
Jalu,29.0331,21.5482,70.9,58,0,9.53,LY,1623635797
Fort Nelson,58.8053,-122.7002,72.99,33,75,0.0,CA,1623635797
San Patricio,28.017,-97.5169,86.09,72,5,8.79,US,1623635798
Leningradskiy,69.3833,178.4167,39.52,77,3,14.52,RU,1623635799
Bahía Blanca,-38.7196,-62.2724,53.96,67,91,6.26,AR,1623635799
Touros,-5.1989,-35.4608,76.1,84,19,8.9,BR,1623635639
Altoona,40.5187,-78.3947,70.52,96,41,4.25,US,1623635801
Caucayá,-0.1934,-74.7819,69.46,99,100,1.03,CO,1623635802
Castaños,26.7833,-101.4167,90.34,31,79,10.09,MX,1623635803
Atuona,-9.8,-139.0333,79.05,80,97,20.74,PF,1623635803
Khatanga,71.9667,102.5,37.4,96,100,16.62,RU,1623635804
Yangi Marg`ilon,40.4272,71.7189,69.22,55,11,11.5,UZ,1623635805
Kizema,61.113,44.8302,59.77,95,53,4.43,RU,1623635806
Savelugu,9.6244,-0.8253,80.96,66,11,7.87,GH,1623635806
Emerald,-23.5333,148.1667,73.54,83,90,6.91,AU,1623635807
Ostrovnoy,68.0531,39.5131,49.17,93,100,8.43,RU,1623635808
Thompson,55.7435,-97.8558,53.76,71,75,12.66,CA,1623635809
Sola,-13.8833,167.55,80.35,76,50,17.02,VU,1623635809
Airai,-8.9266,125.4092,73.0,47,66,3.4,TL,1623635810
Havøysund,70.9963,24.6622,41.88,81,52,28.23,NO,1623635727
Puerto Carreño,6.189,-67.4859,76.41,89,47,2.48,CO,1623635811
Souillac,-20.5167,57.5167,73.78,73,40,14.97,MU,1623635812
Colares,38.7992,-9.4469,68.32,72,36,4.0,PT,1623635815
Balaipungut,1.05,101.2833,82.81,84,8,4.14,ID,1623635816
Kaitangata,-46.2817,169.8464,53.69,91,99,5.12,NZ,1623635817
Vaini,-21.2,-175.2,80.76,74,20,9.22,TO,1623635818
Hobart,-42.8794,147.3294,54.91,92,75,1.01,AU,1623635819
Saint Paul Harbor,57.79,-152.4072,51.17,78,10,7.27,US,1623635819
Tārūt,26.5733,50.0369,89.8,42,0,22.03,SA,1623635820
Whitehorse,60.7161,-135.0538,61.57,51,40,8.99,CA,1623635821
Qaanaaq,77.484,-69.3632,32.36,76,73,2.8,GL,1623635821
Timmins,48.4669,-81.3331,60.62,88,75,2.3,CA,1623635822
Anori,-3.7728,-61.6442,74.98,86,90,2.77,BR,1623635823
Ilulissat,69.2167,-51.1,34.99,88,99,1.48,GL,1623635823
Taltal,-25.4,-70.4833,58.53,82,49,2.33,CL,1623635824
Cabo San Lucas,22.8909,-109.9124,85.3,80,54,8.55,MX,1623635602
Avarua,-21.2078,-159.775,77.05,69,75,13.8,CK,1623635826
Vitim,59.4511,112.5578,71.15,31,100,3.02,RU,1623635826
Saint-Pierre,-21.3393,55.4781,71.24,71,0,6.91,RE,1623635827
Saint-Philippe,-21.3585,55.7679,71.15,79,76,17.18,RE,1623635828
East London,-33.0153,27.9116,62.64,74,57,12.33,ZA,1623635829
Plettenberg Bay,-34.0527,23.3716,55.87,86,26,5.61,ZA,1623635829
Castro,-24.7911,-50.0119,46.35,94,0,4.63,BR,1623635830
Ushtobe,45.2514,77.9838,64.9,31,0,16.24,KZ,1623635831
Sistranda,63.7256,8.834,51.91,90,100,27.85,NO,1623635831
Grand Gaube,-20.0064,57.6608,73.8,66,38,8.01,MU,1623635832
Port Elizabeth,-33.918,25.5701,57.49,88,0,11.5,ZA,1623635833
Edd,13.9297,41.6925,89.33,54,94,1.66,ER,1623635833
Beidao,34.5686,105.8933,67.37,78,100,5.14,CN,1623635834
Champerico,14.3,-91.9167,84.34,73,99,0.47,GT,1623635835
Kavieng,-2.5744,150.7967,85.23,65,11,11.99,PG,1623635835
Chokurdakh,70.6333,147.9167,64.67,38,100,5.66,RU,1623635836
Betong,5.7743,101.0723,80.33,81,71,1.19,TH,1623635837
Yulara,-25.2406,130.9889,60.64,63,2,9.22,AU,1623635838
Tuatapere,-46.1333,167.6833,49.82,90,100,1.95,NZ,1623635839
Bogorodskoye,56.55,37.8833,57.38,90,4,4.92,RU,1623635839
Melita,49.2681,-100.9967,67.28,66,5,4.88,CA,1623635840
Bol,13.4586,14.7147,82.45,75,98,10.29,TD,1623635841
Arlit,18.7369,7.3853,88.93,11,0,11.41,NE,1623635842
Henties Bay,-22.116,14.2845,66.83,44,1,4.38,NA,1623635842
Dikson,73.5069,80.5464,32.09,99,100,10.18,RU,1623635843
Guajará,-2.9667,-57.6667,77.5,82,80,2.51,BR,1623635844
Salinas,36.6777,-121.6555,79.61,70,2,7.81,US,1623635844
Severo-Kuril'sk,50.6789,156.125,43.9,95,100,14.9,RU,1623635845
Padang,-0.9492,100.3543,84.25,71,14,2.24,ID,1623635846
Mossamedes,-15.1961,12.1522,70.72,64,5,3.2,AO,1623635846
Chapada dos Guimarães,-15.4606,-55.7497,71.26,65,0,1.59,BR,1623635847
Kirakira,-10.4544,161.9205,85.41,62,56,10.25,SB,1623635848
Mehamn,71.0357,27.8492,43.97,83,15,27.45,NO,1623635848
Belaya Gora,68.5333,146.4167,66.11,43,98,5.12,RU,1623635849
Ribeira Grande,38.5167,-28.7,68.61,82,14,2.62,PT,1623635850
Koungou,-12.7336,45.2042,76.71,78,20,17.27,YT,1623635851
Charlestown,-32.95,151.6667,64.72,61,22,5.01,AU,1623635851
Guerrero Negro,27.9769,-114.0611,64.36,84,24,16.22,MX,1623635855
Chinsali,-10.5414,32.0816,51.19,65,7,6.2,ZM,1623635856
Bambous Virieux,-20.3428,57.7575,73.65,73,40,14.97,MU,1623635857
Pisco,-13.7,-76.2167,64.02,67,0,4.61,PE,1623635858
Alofi,-19.0595,-169.9187,78.69,73,79,16.11,NU,1623635858
Hofn,64.2539,-15.2082,38.71,69,99,15.7,IS,1623635859
Yaring,6.8662,101.3689,80.64,78,84,2.98,TH,1623635860
Weiswampach,50.1372,6.075,50.77,73,8,3.69,LU,1623635861
Port-Gentil,-0.7193,8.7815,77.14,88,69,16.42,GA,1623635862
Port Macquarie,-31.4333,152.9167,62.89,51,31,1.14,AU,1623635862
Nuuk,64.1835,-51.7216,38.88,80,76,4.0,GL,1623635863
Paamiut,61.994,-49.6678,37.96,89,25,10.56,GL,1623635864
Richards Bay,-28.783,32.0377,65.71,43,0,6.51,ZA,1623635864
Lorengau,-2.0226,147.2712,85.75,63,77,10.67,PG,1623635865
Bembèrèkè,10.2283,2.6634,76.24,69,5,7.38,BJ,1623635866
Mersing,2.4312,103.8405,82.31,89,40,3.44,MY,1623635867
Talnakh,69.4865,88.3972,40.98,85,99,10.98,RU,1623635867
Upernavik,72.7868,-56.1549,35.2,80,100,4.45,GL,1623635868
Kungurtug,50.5994,97.5228,54.45,47,71,3.71,RU,1623635870
Udomlya,57.8794,34.9925,57.16,93,80,3.83,RU,1623635871
Alice Springs,-23.7,133.8833,74.21,21,40,11.99,AU,1623635872
Butaritari,3.0707,172.7902,82.85,74,22,8.32,KI,1623635876
Aykhal,66.0,111.5,40.03,95,100,16.4,RU,1623635876
Shimoda,34.6667,138.95,81.1,66,100,5.46,JP,1623635877
Cockburn Town,21.4612,-71.1419,80.49,84,30,18.01,TC,1623635878
Cidreira,-30.1811,-50.2056,59.85,80,0,12.62,BR,1623635878
Mahébourg,-20.4081,57.7,73.69,73,40,14.97,MU,1623635879
Pochutla,15.7432,-96.4661,81.45,90,99,2.91,MX,1623635880
Multan,30.1956,71.4753,82.29,69,40,4.61,PK,1623635696
Kushmurun,52.4503,64.6311,70.3,43,6,3.91,KZ,1623635881
Mafinga,-7.25,35.0667,58.35,74,9,3.53,TZ,1623635882
Babol,36.5513,52.679,72.27,78,8,4.03,IR,1623635883
Ulaanbaatar,47.9077,106.8832,62.73,55,75,4.47,MN,1623635839
Praia da Vitória,38.7333,-27.0667,70.05,83,20,2.01,PT,1623635884
San Quintín,30.4833,-115.95,66.27,80,7,16.91,MX,1623635885
Lexington Park,38.2668,-76.4538,72.28,75,1,1.01,US,1623635886
Jagtiāl,18.8,78.9333,80.55,73,100,12.33,IN,1623635887
Boma,7.0805,-2.1697,72.59,98,90,3.18,GH,1623635887
Bayangol,50.6977,103.4656,55.63,63,100,2.73,RU,1623635888
Aswān,24.0934,32.907,87.35,25,23,14.63,EG,1623635889
Vastseliina,57.7303,27.2932,50.65,94,31,5.14,EE,1623635890
Ouro Preto do Oeste,-10.7481,-62.2158,73.89,69,26,3.27,BR,1623635629
Fare,-16.7,-151.0167,79.61,78,23,11.99,PF,1623635891
St. George's,12.0564,-61.7485,82.08,78,40,11.5,GD,1623635892
Aitape,-3.1374,142.3475,86.38,65,93,5.68,PG,1623635896
Usoke,-5.1667,32.35,59.29,68,67,4.68,TZ,1623635897
Deputatsky,69.3,139.9,60.28,41,100,1.28,RU,1623635898
Valdivia,-39.8142,-73.2459,37.49,95,62,2.57,CL,1623635899
Codrington,-38.2667,141.9667,58.51,63,97,7.99,AU,1623635900
Nelson Bay,-32.7167,152.15,61.29,60,13,4.0,AU,1623635901
Umm Kaddadah,13.6017,26.6876,89.01,37,100,16.75,SD,1623635902
Assiut,27.181,31.1837,77.18,43,5,14.32,EG,1623635903
Martapura,-3.4167,114.85,83.8,69,98,0.13,ID,1623635904
Mount Gambier,-37.8333,140.7667,57.11,72,85,10.36,AU,1623635904
Olinda,-8.0089,-34.8553,73.13,78,20,4.61,BR,1623635905
Resistencia,-27.4606,-58.9839,61.09,84,0,4.61,AR,1623635801
Miramar,25.9873,-80.2323,85.01,73,15,1.99,US,1623635906
Taoudenni,22.6783,-3.9836,100.06,10,0,12.28,ML,1623635907
Lovozero,68.005,35.0117,53.33,68,3,7.34,RU,1623635908
Tuktoyaktuk,69.4541,-133.0374,37.4,100,90,9.22,CA,1623635909
Tuntum,-5.2581,-44.6489,74.53,77,26,2.39,BR,1623635910
Nushki,29.5542,66.0215,84.76,7,0,6.22,PK,1623635911
Shakawe,-18.3667,21.85,47.12,46,5,4.36,BW,1623635911
Kodinsk,58.6881,99.1844,44.38,95,100,11.27,RU,1623635916
São Félix do Xingu,-6.6447,-51.995,74.88,67,49,1.68,BR,1623635917
Tiksi,71.6872,128.8694,37.76,81,100,4.72,RU,1623635918
Hirara,24.8,125.2833,86.27,89,75,11.5,JP,1623635919
Māngrol,21.1167,70.1167,84.74,76,16,15.37,IN,1623635920
Benito Juarez,19.385,-99.165,58.84,93,90,5.99,MX,1623635921
Paita,-5.0892,-81.1144,68.4,83,31,10.16,PE,1623635921
Namatanai,-3.6667,152.4333,85.28,63,9,4.94,PG,1623635922
Salalah,17.0151,54.0924,81.1,88,54,6.51,OM,1623635923
Sharjah city,25.3573,55.4033,88.25,84,0,5.75,AE,1623635924
Sortavala,61.7053,30.6918,48.88,90,56,4.25,RU,1623635924
Kalamata,37.0389,22.1142,69.12,69,11,4.61,GR,1623635925
Kashihara-shi,34.509,135.7929,79.92,73,75,3.44,JP,1623635926
Porto-Novo,6.4965,2.6036,82.22,83,95,6.87,BJ,1623635927
‘Āhuimanu,21.4447,-157.8378,81.75,63,8,12.62,US,1623635928
Cukai,4.25,103.4167,84.15,69,37,3.89,MY,1623635928
George Town,5.4112,100.3354,85.93,81,20,1.01,MY,1623635929
Teplyk,48.6657,29.745,53.02,98,100,11.32,UA,1623635930
Ust-Kuyga,70.0167,135.6,57.61,57,93,13.87,RU,1623635930
Baghdad,33.3406,44.4009,75.11,33,0,3.44,IQ,1623635658
Denpasar,-8.65,115.2167,82.06,83,75,9.22,ID,1623635932
Saint George,37.1041,-113.5841,104.47,6,30,10.96,US,1623635824
Half Moon Bay,37.4636,-122.4286,79.79,72,46,5.61,US,1623635933
Vardø,70.3705,31.1107,46.71,74,69,14.74,NO,1623635933
Curuguaty,-24.4694,-55.6945,55.33,96,0,4.32,PY,1623635934
Labuhan,-6.8844,112.2051,83.35,71,100,7.54,ID,1623635935
Saint-Joseph,-21.3667,55.6167,70.16,78,41,16.11,RE,1623635936
Grindavik,63.8424,-22.4338,42.75,75,75,13.8,IS,1623635936
Acaraú,-2.8856,-40.12,78.1,83,5,9.86,BR,1623635937
Lagoa,39.05,-27.9833,66.96,83,6,2.33,PT,1623635938
Christchurch,-43.5333,172.6333,54.03,100,90,6.91,NZ,1623635824
Narsaq,60.9167,-46.05,38.52,83,15,3.42,GL,1623635939
Waingapu,-9.6567,120.2641,84.42,64,95,10.07,ID,1623635939
Likasi,-10.9814,26.7333,48.94,53,58,4.97,CD,1623635940
Esso,55.9333,158.7,56.86,60,97,6.35,RU,1623635941
Sligo,54.2697,-8.4694,50.68,91,99,8.19,IE,1623635942
Okhotsk,59.3833,143.3,52.12,66,1,9.08,RU,1623635942
Maţāy,28.419,30.7792,72.39,54,0,12.68,EG,1623635943
Beringovskiy,63.05,179.3167,33.87,99,100,15.95,RU,1623635944
Buchanan,5.8808,-10.0467,76.96,90,98,5.93,LR,1623635944
Provideniya,64.3833,-173.3,36.27,97,100,13.71,RU,1623635945
Samarai,-10.6167,150.6667,81.72,76,30,8.3,PG,1623635946
Akureyri,65.6835,-18.0878,37.33,75,75,3.44,IS,1623635947
Gamba,-2.65,10.0,75.94,88,100,2.8,GA,1623635947
Hong Kong,22.2855,114.1577,90.97,76,100,1.01,HK,1623635769
Mil'kovo,54.7167,158.6167,59.22,63,87,5.26,RU,1623635948
Nortelândia,-14.4547,-56.8028,76.03,61,79,1.52,BR,1623635949
Prince Rupert,54.3161,-130.3201,55.49,91,90,3.44,CA,1623635950
Mount Isa,-20.7333,139.5,78.57,12,40,5.75,AU,1623635950
Berlevåg,70.8578,29.0864,44.51,78,23,24.36,NO,1623635951
Caxito,-8.5785,13.6643,74.05,97,100,2.1,AO,1623635952
Srednekolymsk,67.45,153.6833,77.43,25,97,8.52,RU,1623635956
Qui Nhon,13.7667,109.2333,86.0,61,99,8.66,VN,1623635845
Chui,-33.6971,-53.4616,55.33,90,0,5.84,UY,1623635957
Kirgiz-Miyaki,53.6324,54.7979,63.03,63,88,8.16,RU,1623635958
Schwaz,47.3391,11.7336,51.39,72,0,3.2,AT,1623635959
Sitka,57.0531,-135.33,62.31,59,80,5.97,US,1623635839
Zhigansk,66.7697,123.3711,55.4,74,100,4.43,RU,1623635960
Zvishavane,-20.3267,30.0665,49.55,63,0,1.19,ZW,1623635960
Mergen,49.1833,125.2167,79.23,55,100,7.92,CN,1623635961
Marabu,4.4148,114.0089,87.94,74,20,6.91,MY,1623635962
Musoma,-1.5,33.8,68.02,73,1,0.0,TZ,1623635963
Dickinson,29.4608,-95.0513,92.25,72,66,5.5,US,1623635963
Huarmey,-10.0681,-78.1522,65.93,86,1,8.12,PE,1623635964
Hunterville,-39.9333,175.5667,63.25,86,100,1.48,NZ,1623635965
Talara,-4.5772,-81.2719,67.57,86,86,8.52,PE,1623635965
São José da Coroa Grande,-8.8978,-35.1478,74.62,88,55,8.03,BR,1623635966
Kahului,20.8947,-156.47,80.96,82,68,10.56,US,1623635967
Kipini,-2.5257,40.5262,77.04,78,57,16.73,KE,1623635967
Amapá,1.0,-52.0,71.51,99,88,2.57,BR,1623635968
Saldanha,-33.0117,17.9442,42.85,86,82,6.04,ZA,1623635969
Churapcha,62.0025,132.4325,65.66,38,0,6.29,RU,1623635969
Kutum,14.2,24.6667,81.07,14,95,8.43,SD,1623635970
Grants,35.1473,-107.8514,88.03,8,1,5.75,US,1623635971
Yar-Sale,66.8333,70.8333,67.01,58,28,6.96,RU,1623635972
Oktyabr'skiy,54.4815,53.471,63.1,71,100,2.42,RU,1623635976
Paraíso,9.8383,-83.8656,65.41,96,100,0.36,CR,1623635977
Kukushtan,57.6464,56.4952,58.62,73,53,4.18,RU,1623635977
Micheweni,-4.9667,39.8333,75.24,78,95,12.41,TZ,1623635978
Muroto-misakicho,33.2833,134.15,78.84,87,97,6.69,JP,1623635979
Avera,33.194,-82.5271,76.75,83,45,4.99,US,1623635979
Novoomskiy,54.8415,73.3017,68.02,52,0,4.47,RU,1623635980
Long Beach,33.767,-118.1892,91.74,100,1,7.0,US,1623635849
Sinnamary,5.3833,-52.95,77.86,86,77,6.49,GF,1623635981
Oodweyne,9.4092,45.064,71.44,51,100,17.25,SO,1623635982
Charter Township of Clinton,42.587,-82.9199,78.8,62,25,1.01,US,1623635983
Cap Malheureux,-19.9842,57.6142,73.89,66,32,7.0,MU,1623635983
Biskamzha,53.4497,89.5272,48.87,98,100,2.84,RU,1623635984
Hasaki,35.7333,140.8333,77.29,76,100,9.91,JP,1623635985
Peterhead,57.5058,-1.7981,61.2,98,100,3.09,GB,1623635985
Marawi,7.9986,124.2928,80.65,65,12,2.98,PH,1623635986
Lubin,51.4009,16.2015,51.98,89,3,4.43,PL,1623635987
Boueni,-12.9025,45.0761,76.98,66,96,15.93,YT,1623635987
Peniche,39.3558,-9.3811,68.61,92,50,0.96,PT,1623635988
Nyrob,60.733,56.7202,61.84,96,71,7.74,RU,1623635989
Meulaboh,4.1363,96.1285,79.5,82,100,3.56,ID,1623635989
Laas,46.6166,10.7002,57.02,74,1,4.16,IT,1623635990
Barcelos,41.5388,-8.6151,68.85,92,15,2.44,PT,1623635975
Ponta Delgada,37.7333,-25.6667,66.92,88,20,4.61,PT,1623635992
Vila Franca do Campo,37.7167,-25.4333,66.61,91,19,4.34,PT,1623635993
Rome,43.2128,-75.4557,72.88,85,99,4.5,US,1623635994
San Andrés,12.5847,-81.7006,84.22,79,40,11.5,CO,1623635995
Marzuq,14.4,46.4667,75.6,28,98,4.65,YE,1623635996
Fortuna,40.5982,-124.1573,68.18,69,90,1.99,US,1623635996
Nome,64.5011,-165.4064,46.47,93,90,13.8,US,1623635997
Kuusamo,65.9667,29.1833,48.24,76,0,6.91,FI,1623635998
Miandrivazo,-19.5167,45.4667,66.25,89,70,1.74,MG,1623635998
Maryborough,-25.5333,152.7,69.12,54,100,1.48,AU,1623635999
Tikhvin,59.6451,33.5294,57.22,98,100,6.24,RU,1623636000
Silver City,32.7701,-108.2803,89.56,15,1,4.0,US,1623636001
Jining,35.405,116.5814,82.99,1,100,11.3,CN,1623636017
Shatsk,54.0258,41.7119,59.38,93,61,5.03,RU,1623636018
Umm Hājar,13.2954,19.6966,87.35,45,100,10.16,TD,1623636019
Dāmghān,36.1683,54.348,75.88,48,0,8.14,IR,1623636020
Carmo do Rio Claro,-20.9719,-46.1189,55.11,76,0,4.14,BR,1623636020
Sioux Lookout,50.1001,-91.917,59.86,69,50,2.3,CA,1623636021
Yulin,22.6333,110.15,84.42,77,43,8.03,CN,1623636022
Roald,62.5833,6.1333,55.17,87,40,17.27,NO,1623636023
Boende,-0.2167,20.8667,70.54,91,69,2.75,CD,1623636024
Ixtapa,20.7,-105.2,77.23,92,100,3.78,MX,1623636024
Hamilton,39.1834,-84.5333,79.57,79,0,4.72,US,1623636025
Borova,50.1763,30.1043,60.28,94,100,6.51,UA,1623636026
Semey,50.4111,80.2275,64.62,59,0,6.71,KZ,1623636026
Bima,-8.4667,118.7167,87.21,60,99,3.24,ID,1623636027
Little Current,45.9793,-81.9248,61.12,72,100,9.31,CA,1623636014
Yeppoon,-23.1333,150.7333,71.38,87,87,5.93,AU,1623636028
Gōtsuchō,35.0,132.2167,73.69,87,78,3.58,JP,1623636029
Alexandria,31.2156,29.9553,72.14,71,0,7.18,EG,1623636030
Beatrice,40.2681,-96.747,84.29,42,1,4.61,US,1623636030
Erzin,36.9559,36.2,70.0,89,25,1.68,TR,1623636031
Faya,18.3851,42.4509,65.75,12,87,7.54,SA,1623636032
Sechura,-5.5569,-80.8222,69.78,76,20,12.37,PE,1623636032
Nemuro,43.3236,145.575,50.4,95,88,8.66,JP,1623636033
São Filipe,14.8961,-24.4956,75.2,87,81,11.86,CV,1623636034
Hobyo,5.3505,48.5268,76.64,89,97,21.16,SO,1623636036
Cairns,-16.9167,145.7667,85.1,73,49,1.14,AU,1623636036
Ayan,56.45,138.1667,49.35,66,100,15.37,RU,1623636037
Bilma,18.6853,12.9164,87.64,14,28,18.54,NE,1623636038
Tres Arroyos,-38.3739,-60.2798,53.28,74,100,6.42,AR,1623636038
Bălţăteşti,47.1167,26.3,52.99,91,84,4.27,RO,1623636039
Zaysan,47.4667,84.8667,58.48,54,72,7.36,KZ,1623636040
Orlik,52.5178,99.825,51.84,49,56,6.55,RU,1623636040
Truro,50.2653,-5.0544,60.57,88,9,3.44,GB,1623636041
Port Hardy,50.6996,-127.4199,61.56,63,14,8.9,CA,1623636042
Turukhansk,65.8167,87.9833,54.75,51,77,5.55,RU,1623636043
Dwārka,22.2394,68.9678,85.26,75,100,17.76,IN,1623636043
Turbat,26.0023,63.044,82.6,80,75,3.09,PK,1623636044
City of San Pedro,14.35,121.0167,89.31,69,100,2.8,PH,1623636045
Kaoma,-14.7833,24.8,45.27,51,8,5.37,ZM,1623636045
Natal,-5.795,-35.2094,75.25,87,20,6.8,BR,1623636046
Northam,51.0333,-4.2167,59.4,87,7,2.57,GB,1623636047
Pevek,69.7008,170.3133,39.45,72,100,7.7,RU,1623636047
Lavrentiya,65.5833,-171.0,35.15,98,100,9.55,RU,1623636048
Tessalit,20.1986,1.0114,90.9,17,67,9.57,ML,1623636049
Muros,42.7762,-9.0603,68.5,92,50,4.68,ES,1623636050
Ugoofaaru,5.6667,73.0,82.96,73,100,14.81,MV,1623636050
Banjar,-8.19,114.9675,82.26,71,100,0.89,ID,1623636051
Caçador,-26.7753,-51.015,45.57,88,0,2.98,BR,1623636042
Belmonte,-15.8631,-38.8828,73.9,75,99,10.0,BR,1623635853
Uva,56.9908,52.1852,60.48,95,98,4.12,RU,1623636053
Karratha,-20.7377,116.8463,74.93,33,2,17.54,AU,1623636053
Porirua,-41.1333,174.85,60.22,90,100,8.99,NZ,1623636054
Antofagasta,-23.65,-70.4,57.87,85,21,2.77,CL,1623636019
Coari,-4.085,-63.1414,75.15,89,100,2.77,BR,1623635961
Sandwick,60.0,-1.25,49.82,93,90,17.27,GB,1623636056
Grimshaw,56.1834,-117.6027,73.02,58,100,2.55,CA,1623636057
Comodoro Rivadavia,-45.8667,-67.5,40.75,76,100,23.06,AR,1623636057
Sangīn,32.0728,64.8359,81.27,13,0,11.95,AF,1623636058
North Bend,43.4065,-124.2243,62.92,93,90,8.05,US,1623636059
Dunedin,-45.8742,170.5036,53.8,96,93,8.25,NZ,1623636059
Wawa,9.9022,4.4192,80.51,64,34,7.31,NG,1623636060
Margate,51.3813,1.3862,63.03,75,6,1.01,GB,1623636061
Ambon City,-3.6954,128.1814,80.74,83,40,5.75,ID,1623636061
Nyurba,63.2842,118.3319,69.87,34,99,3.98,RU,1623636062
Mabopane,-25.4977,28.1007,57.13,35,28,4.72,ZA,1623636063
Yining,29.0361,114.5636,89.87,58,100,5.95,CN,1623636064
Saint-Marc,19.1082,-72.6938,82.83,73,96,0.58,HT,1623636064
Igrim,63.1906,64.4162,66.97,64,100,8.39,RU,1623636065
Chërnaya Kholunitsa,58.8511,51.7154,60.19,95,31,6.33,RU,1623636066
Severnyy,50.677,36.5532,59.04,94,0,6.71,RU,1623636066
Bhag,29.0415,67.8239,94.41,44,0,10.6,PK,1623636067
Bathsheba,13.2167,-59.5167,80.31,84,100,19.66,BB,1623636068
Hambantota,6.1241,81.1185,79.14,94,75,9.22,LK,1623636069
Zhob,31.3411,69.4481,77.27,56,0,1.12,PK,1623636069
Pingliang,35.5392,106.6861,62.08,88,100,12.73,CN,1623636070
Iberia,29.9502,-91.7507,85.98,80,27,5.59,US,1623636071
Cam Ranh,11.9214,109.1591,87.76,62,0,3.44,VN,1623636071
Vostok,46.4856,135.8833,70.03,35,0,6.98,RU,1623636072
Barroquinha,-3.0189,-41.1361,72.63,98,12,4.68,BR,1623636073
Mogadishu,2.0371,45.3438,77.92,82,97,17.45,SO,1623636073
Villa Carlos Paz,-31.4241,-64.4978,59.9,70,0,4.0,AR,1623636074
Kouango,4.9934,19.9619,69.35,97,100,2.98,CF,1623636075
Flinders,-34.5833,150.8552,66.38,65,76,1.01,AU,1623636076
Broken Hill,-31.95,141.4333,63.79,34,78,12.57,AU,1623636076
La Concordia,13.1953,-86.1667,67.62,93,100,2.86,NI,1623636077
Bilibino,68.0546,166.4372,62.94,30,84,2.82,RU,1623636078
Dalhousie,32.5333,75.9833,65.66,51,4,3.69,IN,1623636078
Port Hedland,-20.3167,118.5667,77.05,27,3,18.41,AU,1623636079
Pryazha,61.6926,33.6216,53.08,94,100,4.07,RU,1623636080
Gull Lake,50.1001,-108.4847,76.48,42,3,8.37,CA,1623636080
Zanjān,36.6736,48.4787,60.87,41,0,4.14,IR,1623636036
Ormond Beach,29.2858,-81.0559,73.33,73,100,3.74,US,1623635953
Redlands,34.0556,-117.1825,94.53,28,12,7.07,US,1623635824
Aklavik,68.2191,-135.0107,51.49,60,96,17.2,CA,1623636083
Lewisporte,49.2499,-55.0482,47.55,98,100,3.94,CA,1623636083
Mutsu,41.2894,141.2169,71.01,62,52,1.63,JP,1623636084
Tashtyp,52.7939,89.8983,49.19,96,100,5.12,RU,1623636085
Torres,-29.3353,-49.7269,54.73,83,0,6.91,BR,1623636085
Sri Aman,1.2376,111.4621,79.21,82,100,2.84,MY,1623636086
Bealanana,-14.55,48.7333,62.02,98,99,1.66,MG,1623636087
Beltangadi,13.9833,75.3,70.23,96,100,9.55,IN,1623636087
Barra Patuca,15.8,-84.2833,80.8,81,100,9.64,HN,1623636088
Jacareacanga,-6.2222,-57.7528,78.93,58,79,0.92,BR,1623636089
Kassala,15.451,36.4,82.89,50,100,14.67,SD,1623636089
Marsh Harbour,26.5412,-77.0636,81.97,76,13,11.48,BS,1623636016
Korla,41.7597,86.1469,70.93,32,100,16.22,CN,1623636091
Alta Floresta,-9.8756,-56.0861,77.02,60,64,2.39,BR,1623636039
Yumen,40.2833,97.2,72.73,33,100,15.3,CN,1623636092
Cambridge,43.3601,-80.3127,68.54,89,3,6.8,CA,1623636009
Waipawa,-41.4122,175.5153,57.83,85,100,8.34,NZ,1623636095
Marabba,12.35,32.1833,76.35,68,100,24.14,SD,1623636095
Antsohihy,-14.8796,47.9875,71.2,93,93,3.15,MG,1623636096
Rock Springs,41.5875,-109.2029,88.23,5,10,7.0,US,1623635947
Saint-François,46.4154,3.9054,62.19,94,0,0.0,FR,1623636097
Le Port,-20.9373,55.2919,71.56,83,37,11.32,RE,1623636098
Tocopilla,-22.092,-70.1979,62.44,68,7,2.53,CL,1623636099
Goundam,16.4145,-3.6708,94.46,28,63,15.1,ML,1623636099
Balkhash,46.844,74.9804,65.01,32,0,13.42,KZ,1623636100
Shīeli,44.1667,66.75,72.12,22,0,19.69,KZ,1623636101
Qena,26.1615,32.7183,84.42,30,0,11.07,EG,1623636102
Hvolsvollur,63.7533,-20.2243,39.81,75,99,6.71,IS,1623636102
Chadiza,-14.0678,32.4392,48.9,75,0,2.1,ZM,1623636103
Kumbo,6.2,10.6667,58.03,84,99,4.12,CM,1623636104
Jinji,23.2281,110.8261,86.54,71,43,5.46,CN,1623636105
Port Blair,11.6667,92.75,83.14,80,100,20.13,IN,1623635891
Poum,-20.2333,164.0167,75.02,75,0,4.81,NC,1623636106
Paka,4.6374,103.4368,84.15,71,32,2.68,MY,1623636107
Kysyl-Syr,63.8986,122.7617,69.94,30,94,4.72,RU,1623636107
Pangkalanbuun,-2.6833,111.6167,85.06,65,21,4.34,ID,1623636108
Ecoporanga,-18.3733,-40.8306,66.87,80,100,4.34,BR,1623636087
Acapulco de Juárez,16.8634,-99.8901,80.74,81,77,4.32,MX,1623636109
Coyhaique,-45.5752,-72.0662,33.31,89,67,5.64,CL,1623636110
Madiun,-7.6298,111.5239,82.29,74,100,1.14,ID,1623636111
Charters Towers,-20.1,146.2667,77.27,68,94,5.88,AU,1623636112
Naze,28.3667,129.4833,77.0,78,100,4.45,JP,1623636113
Banda Aceh,5.5577,95.3222,83.34,73,99,7.02,ID,1623636113
Inta,66.0317,60.1659,67.01,59,86,6.33,RU,1623636114
Vallenar,-28.5708,-70.7581,55.26,75,0,2.28,CL,1623636115
Sisimiut,66.9395,-53.6735,36.07,76,91,3.53,GL,1623636115
Uruguaiana,-29.7547,-57.0883,53.94,85,0,8.93,BR,1623636116
Kukuna,9.4,-12.6667,74.52,97,100,4.29,SL,1623636117
Prince George,53.9166,-122.753,68.29,60,100,2.19,CA,1623636030
Nelson,-41.2833,173.2833,62.69,93,100,1.01,NZ,1623636118
Nālūt,30.3333,10.85,71.28,33,0,10.13,LY,1623636119
Grand-Santi,4.25,-54.3833,72.46,99,100,2.3,GF,1623636120
Kautokeino,69.0125,23.0412,42.76,67,76,7.9,NO,1623636121
Homer,59.6425,-151.5483,65.08,81,20,14.0,US,1623636121
Putina,-15.4667,-69.4333,42.33,56,1,4.65,PE,1623636122
San Anselmo,37.9747,-122.5616,78.21,81,20,21.99,US,1623636123
Bud,39.447,-86.1758,77.02,43,0,7.38,US,1623636123
São Miguel do Araguaia,-13.275,-50.1628,77.86,47,84,2.15,BR,1623636124
Aksu,41.1231,80.2644,70.63,41,47,7.72,CN,1623636125
Krasnosel'kup,65.7,82.4667,61.93,55,47,12.86,RU,1623636125
Khovd,48.0056,91.6419,55.17,34,39,4.21,MN,1623636126
Springfield,37.2153,-93.2982,75.56,72,12,7.45,US,1623635908
Nassau,40.7507,-73.5829,68.92,79,90,3.0,US,1623636127
Urubamba,-13.3047,-72.1158,54.5,85,8,5.14,PE,1623636128
Ballarat,-37.5662,143.8496,55.18,62,88,5.93,AU,1623636129
Monte Alegre,-2.0078,-54.0692,74.32,86,44,3.33,BR,1623636129
Adrar,20.5022,-10.0711,97.11,10,89,20.87,MR,1623636130
Kamenka,51.3223,42.7678,59.29,91,8,5.97,RU,1623636131
Katherine,-14.4667,132.2667,84.52,48,96,3.44,AU,1623636132
Akşehir,38.3575,31.4164,59.02,69,84,3.11,TR,1623636132
Santa Maria,-29.6842,-53.8069,54.23,89,0,4.23,BR,1623636133
Broome,42.2506,-75.833,73.98,84,1,5.99,US,1623636134
Naila,50.3167,11.7,47.59,72,0,1.57,DE,1623636134
Knysna,-34.0363,23.0471,55.31,92,18,3.91,ZA,1623636135
Serpa,37.9458,-7.5975,61.81,82,0,2.42,PT,1623636136
Haimen,23.1935,116.6142,85.15,75,70,7.74,CN,1623636136
Calabozo,8.9242,-67.4293,76.62,75,46,2.57,VE,1623636137
Diamantino,-14.4086,-56.4461,74.05,65,36,1.52,BR,1623636138
Mtinko,-4.55,34.85,54.66,84,16,6.26,TZ,1623636138
Ust-Maya,60.4167,134.5333,66.24,41,5,2.71,RU,1623636139
Soe,-9.8607,124.284,79.14,51,92,5.28,ID,1623636140
Bohuslav,49.5494,30.8744,55.04,95,100,8.68,UA,1623636141
Baisha,26.5222,110.9311,87.12,65,81,4.83,CN,1623636142
Vila,42.0304,-8.1588,59.88,91,15,3.27,PT,1623636142
Sirte,31.2089,16.5887,70.52,75,0,5.12,LY,1623636143
Chapais,49.7834,-74.8492,57.67,56,100,4.52,CA,1623636144
Muswellbrook,-32.2667,150.9,58.05,53,17,7.9,AU,1623636144
Beyneu,45.3167,55.2,82.06,28,100,21.3,KZ,1623636145
Le Havre,49.4938,0.1077,60.55,82,0,5.75,FR,1623635955
Westport,41.1415,-73.3579,68.65,78,85,1.01,US,1623635935
Vangaindrano,-23.35,47.6,63.5,96,100,5.19,MG,1623636147
Bambey,14.6955,-16.4493,77.77,66,94,9.66,SN,1623636148
Portland,45.5234,-122.6762,64.62,93,100,1.99,US,1623635885
Tarabuco,-19.1667,-64.9167,43.45,39,0,2.91,BO,1623636149
Ola,59.5833,151.2833,54.03,60,7,9.28,RU,1623636149
Tha Rua,14.5634,100.7226,87.22,82,98,1.01,TH,1623636150
Camacupa,-12.0167,17.4833,47.08,52,71,1.59,AO,1623636151
Bhātāpāra,21.7333,81.9333,83.68,67,100,8.84,IN,1623636152
Ryazhsk,53.7038,40.1109,60.58,89,3,4.05,RU,1623636152
Taman',45.2117,36.7161,57.52,79,92,9.42,RU,1623636153
Arrondissement de Montauban,44.0833,1.5,69.12,72,0,2.28,FR,1623636154
Parry Sound,45.3501,-80.033,66.87,83,55,3.18,CA,1623636060
Imbituba,-28.24,-48.6703,56.44,86,0,5.93,BR,1623636113
Palmer,42.1584,-72.3287,69.17,58,20,5.75,US,1623636155
Sorong,-0.8833,131.25,80.22,80,98,4.05,ID,1623636156
Katsuura,35.1333,140.3,74.19,83,100,10.69,JP,1623636157
Rusnė,55.2964,21.3758,50.09,75,8,4.76,LT,1623636158
Elias Fausto,-23.0428,-47.3739,51.33,82,0,7.29,BR,1623636087
Springdale,36.1867,-94.1288,78.91,66,1,3.44,US,1623636059
Uglovskoye,51.3557,80.1942,62.78,76,79,7.81,RU,1623636160
Huichapan,20.3833,-99.65,60.4,85,93,7.34,MX,1623636160
Jertih,5.7336,102.4897,83.93,74,89,2.95,MY,1623636161
Qasigiannguit,68.8193,-51.1922,37.65,88,100,3.76,GL,1623636162
Tutóia,-2.7619,-42.2744,77.85,88,11,9.22,BR,1623636162
São João da Barra,-21.6403,-41.0511,66.61,74,97,9.28,BR,1623636163
Suntar,62.1444,117.6319,69.62,35,100,5.14,RU,1623636164
Livingston,55.9029,-3.5226,57.27,93,90,8.05,GB,1623636164
Fryanovo,56.1333,38.45,61.12,92,0,3.65,RU,1623636165
Arman',59.7,150.1667,53.85,59,10,8.93,RU,1623636166
Bouna,9.2667,-3.0,74.46,86,21,5.57,CI,1623636167
Gizo Government Station,-8.103,156.8419,83.07,72,85,4.7,SB,1623636167
Dhrol,22.5667,70.4167,90.23,58,91,15.97,IN,1623636168
Ishurdi,24.1333,89.0833,84.63,80,97,15.64,BD,1623636169
Flin Flon,54.7682,-101.865,69.62,44,15,4.21,CA,1623636169
Kawalu,-7.3817,108.2082,79.23,82,71,3.31,ID,1623636170
Mandera,3.9366,41.867,74.8,54,99,11.32,KE,1623636171
Husavik,66.0449,-17.3389,34.16,93,100,6.89,IS,1623636171
Bargur,12.5424,78.3539,75.04,71,100,16.84,IN,1623636172
Vila Velha,-20.3297,-40.2925,58.95,80,77,12.37,BR,1623636030
Fairbanks,64.8378,-147.7164,73.36,49,75,11.5,US,1623636011
Synya,65.3718,58.0387,63.77,68,100,7.18,RU,1623636174
Bar Harbor,44.3876,-68.2039,67.33,75,1,6.91,US,1623636175
Esim,4.8699,-2.2405,78.94,86,89,7.09,GH,1623636175
Tilichiki,60.4667,166.1,57.79,42,8,4.81,RU,1623636176
Smidovich,48.6,133.8167,66.99,64,9,8.16,RU,1623636177
Nokaneng,-19.6667,22.2667,50.99,47,0,2.66,BW,1623636177
San Cristobal,7.7669,-72.225,73.58,95,100,2.51,VE,1623635927
Sakakah,29.9697,40.2064,82.29,18,0,6.51,SA,1623636178
Idanre,7.1127,5.1159,71.85,99,88,2.19,NG,1623636179
Chissamba,-12.1667,17.3333,48.31,52,64,0.94,AO,1623636180
Puerto Gaitán,4.3133,-72.0816,75.54,89,93,4.92,CO,1623636181
Luga,58.7372,29.8453,51.73,97,62,5.17,RU,1623636181
Solnechnyy,50.7214,136.6319,66.85,36,3,6.33,RU,1623636182
Wanning,18.8003,110.3967,86.2,68,100,9.75,CN,1623636183
Oussouye,12.485,-16.5469,75.96,71,100,11.36,SN,1623636183
Baruun-Urt,46.6806,113.2792,60.55,75,100,13.73,MN,1623636184
Kibungo,-2.1597,30.5427,65.32,89,100,1.59,RW,1623636185
